{ "_id" : { "$oid" : "52c2ebda8110650b62d8bdfb" }, "accuracy" : null, "id" : 1, "latitude" : null, "longitude" : null, "subtitle" : null, "title" : "Unknown", "type" : "STORE" }
{ "_id" : { "$oid" : "52c2ebdb8110650b62d8bdfc" }, "accuracy" : null, "id" : 2, "latitude" : null, "longitude" : null, "subtitle" : "Great North Museum: Hancock (Explore)", "title" : "Great North Museum: Hancock (Explore)", "type" : "STORE" }
{ "_id" : { "$oid" : "52c2ebdb8110650b62d8bdfd" }, "accuracy" : null, "id" : 3, "latitude" : null, "longitude" : null, "subtitle" : "Great North Museum: Hancock", "title" : "Great North Museum: Hancock", "type" : "STORE" }
{ "_id" : { "$oid" : "52c2ebdb8110650b62d8bdfe" }, "accuracy" : null, "id" : 4, "latitude" : null, "longitude" : null, "subtitle" : "Great North Museum Resource Centre", "title" : "Great North Museum Resource Centre", "type" : "STORE" }
{ "_id" : { "$oid" : "52c2ebdb8110650b62d8bdff" }, "accuracy" : null, "id" : 5, "latitude" : null, "longitude" : null, "subtitle" : "Laing Art Gallery", "title" : "Laing Art Gallery", "type" : "STORE" }
{ "_id" : { "$oid" : "52c2ebdc8110650b62d8be00" }, "accuracy" : null, "id" : 6, "latitude" : null, "longitude" : null, "subtitle" : "Newcastle University", "title" : "Newcastle University", "type" : "STORE" }
{ "_id" : { "$oid" : "52c2ebdc8110650b62d8be01" }, "accuracy" : null, "id" : 7, "latitude" : null, "longitude" : null, "subtitle" : "Arbeia Roman Fort", "title" : "Arbeia Roman Fort", "type" : "STORE" }
{ "_id" : { "$oid" : "52c2ebdc8110650b62d8be02" }, "accuracy" : null, "id" : 8, "latitude" : null, "longitude" : null, "subtitle" : "Great North Museum: Hancock (Ice Age to Iron Age)", "title" : "Great North Museum: Hancock (Ice Age to Iron Age)", "type" : "STORE" }
{ "_id" : { "$oid" : "52c2ebdc8110650b62d8be03" }, "accuracy" : null, "id" : 9, "latitude" : null, "longitude" : null, "subtitle" : "Great North Museum: Hancock (Ancient Egyptians)", "title" : "Great North Museum: Hancock (Ancient Egyptians)", "type" : "STORE" }
{ "_id" : { "$oid" : "52c2ebdd8110650b62d8be04" }, "accuracy" : null, "id" : 10, "latitude" : null, "longitude" : null, "subtitle" : "Sunderland Museum and Winter Gardens", "title" : "Sunderland Museum and Winter Gardens", "type" : "STORE" }
{ "_id" : { "$oid" : "52c2ebdd8110650b62d8be05" }, "accuracy" : null, "id" : 11, "latitude" : null, "longitude" : null, "subtitle" : "Great North Museum: Hancock (World Cultures)", "title" : "Great North Museum: Hancock (World Cultures)", "type" : "STORE" }
{ "_id" : { "$oid" : "52c2ebdd8110650b62d8be06" }, "accuracy" : null, "id" : 12, "latitude" : null, "longitude" : null, "subtitle" : "Great North Museum: Hancock (Ancient Greeks)", "title" : "Great North Museum: Hancock (Ancient Greeks)", "type" : "STORE" }
{ "_id" : { "$oid" : "52c2ebdd8110650b62d8be07" }, "accuracy" : null, "id" : 13, "latitude" : null, "longitude" : null, "subtitle" : null, "title" : "Unknown", "type" : "FIND" }
{ "_id" : { "$oid" : "52c2ebdd8110650b62d8be08" }, "accuracy" : 2, "id" : 14, "latitude" : 56.26392, "longitude" : 9.501785, "subtitle" : "Denmark, Europe", "title" : "Denmark", "type" : "FIND" }
{ "_id" : { "$oid" : "52c2ebdd8110650b62d8be09" }, "accuracy" : 4, "id" : 15, "latitude" : 54.896837, "longitude" : -2.25502, "subtitle" : "Allendale Town, Northumberland, England, United Kingdom, Europe", "title" : "Allendale", "type" : "FIND" }
{ "_id" : { "$oid" : "52c2ebdd8110650b62d8be0a" }, "accuracy" : 2, "id" : 16, "latitude" : 53.41291, "longitude" : -8.24389, "subtitle" : "Ireland, Europe", "title" : "Ireland", "type" : "FIND" }
{ "_id" : { "$oid" : "52c2ebdd8110650b62d8be0b" }, "accuracy" : 3, "id" : 17, "latitude" : -27.6728168, "longitude" : 121.6283098, "subtitle" : "Western Australia, Australia, Australasia", "title" : "Western Australia", "type" : "FIND" }
{ "_id" : { "$oid" : "52c2ebdd8110650b62d8be0c" }, "accuracy" : 4, "id" : 18, "latitude" : 55.5477196, "longitude" : -1.8716349, "subtitle" : "Roughting Linn, Alnwick, Northumberland, England, United Kingdom, Europe", "title" : "Roughting Linn", "type" : "FIND" }
{ "_id" : { "$oid" : "52c2ebdd8110650b62d8be0d" }, "accuracy" : 2, "id" : 19, "latitude" : 26.820553, "longitude" : 30.802498, "subtitle" : "Egypt, Africa", "title" : "Egypt", "type" : "FIND" }
{ "_id" : { "$oid" : "52c2ebdd8110650b62d8be0e" }, "accuracy" : 4, "id" : 20, "latitude" : 55.306764, "longitude" : -2.009822, "subtitle" : "Caistron, Northumberland, England, United Kingdom, Europe", "title" : "Caistron", "type" : "FIND" }
{ "_id" : { "$oid" : "52c2ebdd8110650b62d8be0f" }, "accuracy" : 4, "id" : 21, "latitude" : -38.5864817, "longitude" : 145.9796802, "subtitle" : "Tarwin, Victoria, Australia, Australasia", "title" : "Tarwin", "type" : "FIND" }
{ "_id" : { "$oid" : "52c2ebdd8110650b62d8be10" }, "accuracy" : 4, "id" : 22, "latitude" : 55.331461, "longitude" : -1.585261, "subtitle" : "Amble, Northumberland, England, United Kingdom, Europe", "title" : "Amble", "type" : "FIND" }
{ "_id" : { "$oid" : "52c2ebdd8110650b62d8be11" }, "accuracy" : 4, "id" : 23, "latitude" : 29.3084021, "longitude" : 30.8428497, "subtitle" : "Faiyum, Qesm Al Fayoum, Al Fayoum, Faiyum, Egypt, Africa", "title" : "Faiyum", "type" : "FIND" }
{ "_id" : { "$oid" : "52c2ebdd8110650b62d8be12" }, "accuracy" : 1, "id" : 24, "latitude" : -24.3570767, "longitude" : 19.5687103, "subtitle" : "Southern Africa, Africa", "title" : "Southern Africa", "type" : "FIND" }
{ "_id" : { "$oid" : "52c2ebdd8110650b62d8be13" }, "accuracy" : 4, "id" : 25, "latitude" : 54.974046, "longitude" : -2.017505, "subtitle" : "Corbridge, Northumberland, England, United Kingdom, Europe", "title" : "Corbridge", "type" : "FIND" }
{ "_id" : { "$oid" : "52c2ebdd8110650b62d8be14" }, "accuracy" : 4, "id" : 26, "latitude" : 32.7765656, "longitude" : -79.9309216, "subtitle" : "Charleston, South Carolina, United States, North America", "title" : "Charleston", "type" : "FIND" }
{ "_id" : { "$oid" : "52c2ebdd8110650b62d8be15" }, "accuracy" : 3, "id" : 27, "latitude" : 55.9445436, "longitude" : 9.229743900000001, "subtitle" : "Jutland, Denmark, Europe", "title" : "Sonder Fjelding Moss (Jutland)", "type" : "FIND" }
{ "_id" : { "$oid" : "52c2ebdd8110650b62d8be16" }, "accuracy" : 2, "id" : 28, "latitude" : 20.593684, "longitude" : 78.96288, "subtitle" : "India, Asia", "title" : "India (North)", "type" : "FIND" }
{ "_id" : { "$oid" : "52c2ebdd8110650b62d8be17" }, "accuracy" : 2, "id" : 29, "latitude" : 21.913965, "longitude" : 95.95622299999999, "subtitle" : "Burma, South East Asia", "title" : "Burma", "type" : "FIND" }
{ "_id" : { "$oid" : "52c2ebdd8110650b62d8be18" }, "accuracy" : 4, "id" : 30, "latitude" : 52.447262, "longitude" : -0.4560507, "subtitle" : "Barnwell, Northamptonshire, England, United Kingdom, Europe", "title" : "Barnwell", "type" : "FIND" }
{ "_id" : { "$oid" : "52c2ebdd8110650b62d8be19" }, "accuracy" : 4, "id" : 31, "latitude" : 55.14578, "longitude" : -2.254156, "subtitle" : "Bellingham, Northumberland, England, United Kingdom, Europe", "title" : "Bellingham", "type" : "FIND" }
{ "_id" : { "$oid" : "52c2ebdd8110650b62d8be1a" }, "accuracy" : 4, "id" : 32, "latitude" : 55.2591644, "longitude" : -1.6606554, "subtitle" : "Chevington Moor, Morpeth, Northumberland, England, United Kingdom, Europe", "title" : "Chevington Moor", "type" : "FIND" }
{ "_id" : { "$oid" : "52c2ebdd8110650b62d8be1b" }, "accuracy" : 4, "id" : 33, "latitude" : 54.9818519, "longitude" : -2.0054615, "subtitle" : "Cragside, Corbridge, Northumberland, England, United Kingdom, Europe", "title" : "Cragside", "type" : "FIND" }
{ "_id" : { "$oid" : "52c2ebdd8110650b62d8be1c" }, "accuracy" : 4, "id" : 34, "latitude" : 54.947653, "longitude" : -1.906376, "subtitle" : "Stocksfield, Northumberland, England, United Kingdom, Europe", "title" : "Stocksfield", "type" : "FIND" }
{ "_id" : { "$oid" : "52c2ebdd8110650b62d8be1d" }, "accuracy" : 4, "id" : 35, "latitude" : 55.5779, "longitude" : -2.0584, "subtitle" : "Ewert Park, Ewart, Northumberland, England, United Kingdom, Europe", "title" : "Ewart Park", "type" : "FIND" }
{ "_id" : { "$oid" : "52c2ebdd8110650b62d8be1e" }, "accuracy" : 3, "id" : 36, "latitude" : 55.9445436, "longitude" : 9.229743900000001, "subtitle" : "Jutland, Denmark, Europe", "title" : "Lille Korsbaerg (Jutland)", "type" : "FIND" }
{ "_id" : { "$oid" : "52c2ebdd8110650b62d8be1f" }, "accuracy" : 3, "id" : 37, "latitude" : 55.478, "longitude" : -2.152, "subtitle" : "Cheviot Hills, Northumberland National Park, Northumberland, England, United Kingdom, Europe", "title" : "Cheviots", "type" : "FIND" }
{ "_id" : { "$oid" : "52c2ebdd8110650b62d8be20" }, "accuracy" : 4, "id" : 38, "latitude" : 54.779879, "longitude" : -2.095285, "subtitle" : "Rookhope, County Durham, England, United Kingdom, Europe", "title" : "Rookhope", "type" : "FIND" }
{ "_id" : { "$oid" : "52c2ebdd8110650b62d8be21" }, "accuracy" : 4, "id" : 39, "latitude" : 55.003608, "longitude" : -1.748268, "subtitle" : "Dewley Farm, Throckley, Northumberland, England, United Kingdom, Europe", "title" : "Dewley Farm", "type" : "FIND" }
{ "_id" : { "$oid" : "52c2ebdd8110650b62d8be22" }, "accuracy" : 4, "id" : 40, "latitude" : -9.755102600000001, "longitude" : 161.9638445, "subtitle" : "Ulawa Island, Solomon Islands, Melanesia, Australasia", "title" : "Sa'a Island", "type" : "FIND" }
{ "_id" : { "$oid" : "52c2ebdd8110650b62d8be23" }, "accuracy" : 4, "id" : 41, "latitude" : 54.975823, "longitude" : -2.249734, "subtitle" : "Haydon Bridge, Northumberland, England, United Kingdom, Europe", "title" : "Haydon Bridge", "type" : "FIND" }
{ "_id" : { "$oid" : "52c2ebdd8110650b62d8be24" }, "accuracy" : 4, "id" : 42, "latitude" : 52.6676538, "longitude" : -9.0565316, "subtitle" : "River Shannon, Ireland, Europe", "title" : "River Shannon", "type" : "FIND" }
{ "_id" : { "$oid" : "52c2ebdd8110650b62d8be25" }, "accuracy" : 4, "id" : 43, "latitude" : 55.547141, "longitude" : -1.91501, "subtitle" : "Chatton, Northumberland, England, United Kingdom, Europe", "title" : "Chatton", "type" : "FIND" }
{ "_id" : { "$oid" : "52c2ebdd8110650b62d8be26" }, "accuracy" : 3, "id" : 44, "latitude" : 35.7595731, "longitude" : -79.0192997, "subtitle" : "North Carolina, United States, North America", "title" : "North Carolina", "type" : "FIND" }
{ "_id" : { "$oid" : "52c2ebdd8110650b62d8be27" }, "accuracy" : 4, "id" : 45, "latitude" : 55.042834, "longitude" : -1.813361, "subtitle" : "Dissington, Ponteland, Northumberland, England, United Kingdom, Europe", "title" : "Dissington", "type" : "FIND" }
{ "_id" : { "$oid" : "52c2ebdd8110650b62d8be28" }, "accuracy" : 4, "id" : 46, "latitude" : 55.004269, "longitude" : -2.0322448, "subtitle" : "Stagshaw Bank, Northumberland, England, United Kingdom, Europe", "title" : "Stagshaw Bank", "type" : "FIND" }
{ "_id" : { "$oid" : "52c2ebdd8110650b62d8be29" }, "accuracy" : 4, "id" : 47, "latitude" : 31.281683, "longitude" : 34.482096, "subtitle" : "Sharuhen, Palestine, Israel, Middle East", "title" : "Tell-el-Ajjul, Palestine", "type" : "FIND" }
{ "_id" : { "$oid" : "52c2ebdd8110650b62d8be2a" }, "accuracy" : 3, "id" : 48, "latitude" : 60.4936893, "longitude" : -1.3817072, "subtitle" : "Shetland Islands, Scotland, United Kingdom, Europe", "title" : "Shetland Islands", "type" : "FIND" }
{ "_id" : { "$oid" : "52c2ebdd8110650b62d8be2b" }, "accuracy" : 2, "id" : 49, "latitude" : 71.706936, "longitude" : -42.604303, "subtitle" : "Greenland, Europe", "title" : "Greenland", "type" : "FIND" }
{ "_id" : { "$oid" : "52c2ebdd8110650b62d8be2c" }, "accuracy" : 4, "id" : 50, "latitude" : 51.751724, "longitude" : -1.255285, "subtitle" : "Oxford, England, United Kingdom, Europe", "title" : "Oxford", "type" : "FIND" }
{ "_id" : { "$oid" : "52c2ebdd8110650b62d8be2d" }, "accuracy" : 3, "id" : 51, "latitude" : 55.9445436, "longitude" : 9.229743900000001, "subtitle" : "Jutland, Denmark, Europe", "title" : "Slagsbro (Jutland)", "type" : "FIND" }
{ "_id" : { "$oid" : "52c2ebdd8110650b62d8be2e" }, "accuracy" : 2, "id" : 52, "latitude" : 20.593684, "longitude" : 78.96288, "subtitle" : "India, Asia", "title" : "India (North West)", "type" : "FIND" }
{ "_id" : { "$oid" : "52c2ebdd8110650b62d8be2f" }, "accuracy" : 4, "id" : 53, "latitude" : 55.23479, "longitude" : -2.09926, "subtitle" : "Elsdon, Northumberland, England, United Kingdom, Europe", "title" : "Elsdon", "type" : "FIND" }
{ "_id" : { "$oid" : "52c2ebdd8110650b62d8be30" }, "accuracy" : 2, "id" : 54, "latitude" : 9.081999, "longitude" : 8.675276999999999, "subtitle" : "Nigeria, Africa", "title" : "Nigeria", "type" : "FIND" }
{ "_id" : { "$oid" : "52c2ebdd8110650b62d8be31" }, "accuracy" : 4, "id" : 55, "latitude" : 54.7469116, "longitude" : -2.0152232, "subtitle" : "Unthank Hall, Stanhope, Bishop Auckland, County Durham, England, United Kingdom, Europe", "title" : "Unthank Hall", "type" : "FIND" }
{ "_id" : { "$oid" : "52c2ebdd8110650b62d8be32" }, "accuracy" : 4, "id" : 56, "latitude" : 55.0115824, "longitude" : -2.3187093, "subtitle" : "Housesteads Farm, Haydon Bridge, Hexham, Northumberland, England, United Kingdom, Europe", "title" : "Housesteads", "type" : "FIND" }
{ "_id" : { "$oid" : "52c2ebdd8110650b62d8be33" }, "accuracy" : 4, "id" : 57, "latitude" : 55.527675, "longitude" : -1.905184, "subtitle" : "Chillingham, Northumberland, England, United Kingdom, Europe", "title" : "Chillingham", "type" : "FIND" }
{ "_id" : { "$oid" : "52c2ebdd8110650b62d8be34" }, "accuracy" : 4, "id" : 58, "latitude" : 52.3444209, "longitude" : 0.510947, "subtitle" : "Mildenhall, Suffolk, England, United Kingdom, Europe", "title" : "Mildenhall", "type" : "FIND" }
{ "_id" : { "$oid" : "52c2ebdd8110650b62d8be35" }, "accuracy" : 3, "id" : 59, "latitude" : 55.478, "longitude" : -2.152, "subtitle" : "Cheviot Hills, Northumberland National Park, Northumberland, England, United Kingdom, Europe", "title" : "Cheviot Hills", "type" : "FIND" }
{ "_id" : { "$oid" : "52c2ebdd8110650b62d8be36" }, "accuracy" : 4, "id" : 60, "latitude" : 55.6653625, "longitude" : -1.9020791, "subtitle" : "Cockleman's Quarry, Kyloe, Northumberland, England, United Kingdom, Europe", "title" : "Cockleman's Quarry", "type" : "FIND" }
{ "_id" : { "$oid" : "52c2ebdd8110650b62d8be37" }, "accuracy" : 3, "id" : 61, "latitude" : 54.447057, "longitude" : -3.063918, "subtitle" : "Great Langdale, Cumbria, England, United Kingdom, Europe", "title" : "Great Langdale", "type" : "FIND" }
{ "_id" : { "$oid" : "52c2ebdd8110650b62d8be38" }, "accuracy" : 3, "id" : 62, "latitude" : 10.1077131, "longitude" : -85.4300022, "subtitle" : "Peninsula De Nicoya, Costa Rica, Central America", "title" : "Peninsula De Nicoya", "type" : "FIND" }
{ "_id" : { "$oid" : "52c2ebdd8110650b62d8be39" }, "accuracy" : 2, "id" : 63, "latitude" : 37.09024, "longitude" : -95.712891, "subtitle" : "United States, North America", "title" : "USA", "type" : "FIND" }
{ "_id" : { "$oid" : "52c2ebdd8110650b62d8be3a" }, "accuracy" : 4, "id" : 64, "latitude" : 52.304302, "longitude" : 0.668915, "subtitle" : "West Stow, Suffolk, England, United Kingdom, Europe", "title" : "West Stow", "type" : "FIND" }
{ "_id" : { "$oid" : "52c2ebdd8110650b62d8be3b" }, "accuracy" : 2, "id" : 65, "latitude" : 26.3351, "longitude" : 17.228331, "subtitle" : "Libya, Africa", "title" : "Libya", "type" : "FIND" }
{ "_id" : { "$oid" : "52c2ebdd8110650b62d8be3c" }, "accuracy" : 4, "id" : 66, "latitude" : 55.349166, "longitude" : -2.035645, "subtitle" : "Low Burradon, Burradon, Morpeth, Northumberland, England, Untied Kingdom, Europe", "title" : "Low Burradon", "type" : "FIND" }
{ "_id" : { "$oid" : "52c2ebdd8110650b62d8be3d" }, "accuracy" : 4, "id" : 67, "latitude" : 41.1171432, "longitude" : 16.8718715, "subtitle" : "Bari, Italy, Europe", "title" : "Bari", "type" : "FIND" }
{ "_id" : { "$oid" : "52c2ebdd8110650b62d8be3e" }, "accuracy" : 4, "id" : 68, "latitude" : -20.2167, "longitude" : -70.142223, "subtitle" : "Iquique, Tarapacá Region, Chile, South America", "title" : "Iquique", "type" : "FIND" }
{ "_id" : { "$oid" : "52c2ebdd8110650b62d8be3f" }, "accuracy" : 3, "id" : 69, "latitude" : -41.8101472, "longitude" : -68.9062689, "subtitle" : "Patagonia, Argentina, South America", "title" : "Patagonia", "type" : "FIND" }
{ "_id" : { "$oid" : "52c2ebdd8110650b62d8be40" }, "accuracy" : 3, "id" : 70, "latitude" : -1.1061234, "longitude" : 114.1439354, "subtitle" : "Borneo, Indonesia, South East Asia", "title" : "Borneo", "type" : "FIND" }
{ "_id" : { "$oid" : "52c2ebdd8110650b62d8be41" }, "accuracy" : 4, "id" : 71, "latitude" : 55.412744, "longitude" : -1.706299, "subtitle" : "Alnwick, Northumberland, England, United Kingdom, Europe", "title" : "Alnwick", "type" : "FIND" }
{ "_id" : { "$oid" : "52c2ebdd8110650b62d8be42" }, "accuracy" : 4, "id" : 72, "latitude" : 55.2742662, "longitude" : -1.7195669, "subtitle" : "Bockenfield, Felton, Morpeth, Northumberland, England, United Kingdom, Europe", "title" : "Bockenfield", "type" : "FIND" }
{ "_id" : { "$oid" : "52c2ebdd8110650b62d8be43" }, "accuracy" : 3, "id" : 73, "latitude" : 54.7504413, "longitude" : -6.3280558, "subtitle" : "Antrim, County Antrim, Northern Ireland, United Kingdom, Europe", "title" : "Antrim", "type" : "FIND" }
{ "_id" : { "$oid" : "52c2ebdd8110650b62d8be44" }, "accuracy" : 2, "id" : 74, "latitude" : -9.189966999999999, "longitude" : -75.015152, "subtitle" : "Peru, South America", "title" : "Peru", "type" : "FIND" }
{ "_id" : { "$oid" : "52c2ebdd8110650b62d8be45" }, "accuracy" : 3, "id" : 75, "latitude" : 55.9445436, "longitude" : 9.229743900000001, "subtitle" : "Jutland, Denmark, Europe", "title" : "Jutland, Denmark", "type" : "FIND" }
{ "_id" : { "$oid" : "52c2ebdd8110650b62d8be46" }, "accuracy" : 4, "id" : 76, "latitude" : 55.4632518, "longitude" : 11.7214979, "subtitle" : "Sjaelland, Zealand, Denmark, Europe", "title" : "Sjaelland, Denmark", "type" : "FIND" }
{ "_id" : { "$oid" : "52c2ebdd8110650b62d8be47" }, "accuracy" : 2, "id" : 77, "latitude" : 36.204824, "longitude" : 138.252924, "subtitle" : "Japan, Asia", "title" : "Japan", "type" : "FIND" }
{ "_id" : { "$oid" : "52c2ebdd8110650b62d8be48" }, "accuracy" : 3, "id" : 78, "latitude" : -45.1526707, "longitude" : 169.8926333, "subtitle" : "South Island, New Zealand, Australasia", "title" : "South Island", "type" : "FIND" }
{ "_id" : { "$oid" : "52c2ebdd8110650b62d8be49" }, "accuracy" : 3, "id" : 79, "latitude" : 7.1819619, "longitude" : 32.3560952, "subtitle" : "Boma Plateau, Jonglei, South Sudan, Africa", "title" : "Boma Plateau", "type" : "FIND" }
{ "_id" : { "$oid" : "52c2ebdd8110650b62d8be4a" }, "accuracy" : 4, "id" : 80, "latitude" : 55.1270109, "longitude" : -1.5910058, "subtitle" : "Millfield, Bedlington, Northumberland, England, United Kingdom, Europe", "title" : "Millfield", "type" : "FIND" }
{ "_id" : { "$oid" : "52c2ebdd8110650b62d8be4b" }, "accuracy" : 2, "id" : 81, "latitude" : 7.873054, "longitude" : 80.77179700000001, "subtitle" : "Sri Lanka, Asia", "title" : "Sri Lanka", "type" : "FIND" }
{ "_id" : { "$oid" : "52c2ebdd8110650b62d8be4c" }, "accuracy" : 2, "id" : 82, "latitude" : 39.074208, "longitude" : 21.824312, "subtitle" : "Greece, Europe", "title" : "Greece", "type" : "FIND" }
{ "_id" : { "$oid" : "52c2ebdd8110650b62d8be4d" }, "accuracy" : 1, "id" : 83, "latitude" : 23.4162027, "longitude" : 25.66283, "subtitle" : "North Africa, Africa", "title" : "North Africa", "type" : "FIND" }
{ "_id" : { "$oid" : "52c2ebdd8110650b62d8be4e" }, "accuracy" : 2, "id" : 84, "latitude" : -21.236736, "longitude" : -159.777671, "subtitle" : "Cook Islands, Polynesia, South Pacific", "title" : "Cook Islands", "type" : "FIND" }
{ "_id" : { "$oid" : "52c2ebdd8110650b62d8be4f" }, "accuracy" : 3, "id" : 85, "latitude" : 47.0503348, "longitude" : 8.3156129, "subtitle" : "Swiss Lakes, Lucerne, Switzerland, Europe", "title" : "Swiss Lakes", "type" : "FIND" }
{ "_id" : { "$oid" : "52c2ebdd8110650b62d8be50" }, "accuracy" : 4, "id" : 86, "latitude" : 54.812167, "longitude" : -2.438685, "subtitle" : "Alston, Cumbria, England, United Kingdom, Europe", "title" : "Alston", "type" : "FIND" }
{ "_id" : { "$oid" : "52c2ebdd8110650b62d8be51" }, "accuracy" : 4, "id" : 87, "latitude" : 54.95268, "longitude" : -1.603411, "subtitle" : "Gateshead, Tyne and Wear, England, United Kingdom, Europe", "title" : "Gateshead", "type" : "FIND" }
{ "_id" : { "$oid" : "52c2ebdd8110650b62d8be52" }, "accuracy" : 2, "id" : 88, "latitude" : -25.274398, "longitude" : 133.775136, "subtitle" : "Australia, Australasia", "title" : "Australia", "type" : "FIND" }
{ "_id" : { "$oid" : "52c2ebdd8110650b62d8be53" }, "accuracy" : 2, "id" : 89, "latitude" : -7.6145292, "longitude" : 110.7122465, "subtitle" : "Java, Indonesia, Australasia", "title" : "Java, Indonesia", "type" : "FIND" }
{ "_id" : { "$oid" : "52c2ebdd8110650b62d8be54" }, "accuracy" : 4, "id" : 90, "latitude" : 55.599331, "longitude" : -1.828824, "subtitle" : "Belford, Northumberland, England, United Kingdom, Europe", "title" : "Martfield (Belford)", "type" : "FIND" }
{ "_id" : { "$oid" : "52c2ebdd8110650b62d8be55" }, "accuracy" : 4, "id" : 91, "latitude" : 50.054755, "longitude" : 1.903714, "subtitle" : "Pont-Remy, Somme, France, Europe", "title" : "Pont-Remy", "type" : "FIND" }
{ "_id" : { "$oid" : "52c2ebdd8110650b62d8be56" }, "accuracy" : 4, "id" : 92, "latitude" : 54.8922789, "longitude" : -1.5264901, "subtitle" : "Finchale, Washington, Tyne and Wear, England, United Kingdom, Europe", "title" : "Finchale", "type" : "FIND" }
{ "_id" : { "$oid" : "52c2ebdd8110650b62d8be57" }, "accuracy" : 2, "id" : 93, "latitude" : 28.394857, "longitude" : 84.124008, "subtitle" : "Nepal, Asia", "title" : "Nepal", "type" : "FIND" }
{ "_id" : { "$oid" : "52c2ebdd8110650b62d8be58" }, "accuracy" : 4, "id" : 94, "latitude" : 54.9418362, "longitude" : -2.0871107, "subtitle" : "Newbiggin, Northumberland, England, United Kingdom, Europe", "title" : "Newbiggin", "type" : "FIND" }
{ "_id" : { "$oid" : "52c2ebdd8110650b62d8be59" }, "accuracy" : 4, "id" : 95, "latitude" : 54.731305, "longitude" : -1.308883, "subtitle" : "Hesleden Dene, County Durham, England, United Kingdom, Europe", "title" : "Hesleden Dene", "type" : "FIND" }
{ "_id" : { "$oid" : "52c2ebdd8110650b62d8be5a" }, "accuracy" : 4, "id" : 96, "latitude" : 55.542885, "longitude" : -1.822487, "subtitle" : "Lucker Moor House, Warenford, Northumberland, England, United Kingdom, Europe", "title" : "Lucker Moor House", "type" : "FIND" }
{ "_id" : { "$oid" : "52c2ebdd8110650b62d8be5b" }, "accuracy" : 4, "id" : 97, "latitude" : 54.606252, "longitude" : -2.003654, "subtitle" : "Eggleston, Barnard Castle, County Durham, England, United Kingdom, Europe", "title" : "Eggleston", "type" : "FIND" }
{ "_id" : { "$oid" : "52c2ebdd8110650b62d8be5c" }, "accuracy" : 2, "id" : 98, "latitude" : -6.314993, "longitude" : 143.95555, "subtitle" : "Papua New Guinea, Melanesia, Australasia", "title" : "Papua New Guinea (South Coast Region)", "type" : "FIND" }
{ "_id" : { "$oid" : "52c2ebdd8110650b62d8be5d" }, "accuracy" : 4, "id" : 99, "latitude" : 55.607884, "longitude" : -1.713559, "subtitle" : "Bamburgh, Northumberland, England, United Kingdom, Europe", "title" : "Shada Crags (Bamborough)", "type" : "FIND" }
{ "_id" : { "$oid" : "52c2ebdd8110650b62d8be5e" }, "accuracy" : 4, "id" : 100, "latitude" : 55.16875, "longitude" : -1.687493, "subtitle" : "Morpeth, Northumberland, England, United Kingdom, Europe", "title" : "Morpeth", "type" : "FIND" }
{ "_id" : { "$oid" : "52c2ebdd8110650b62d8be5f" }, "accuracy" : 1, "id" : 101, "latitude" : -8.783194999999999, "longitude" : 34.508523, "subtitle" : "Africa", "title" : "Africa", "type" : "FIND" }
{ "_id" : { "$oid" : "52c2ebdd8110650b62d8be60" }, "accuracy" : 4, "id" : 102, "latitude" : 55.053156, "longitude" : -2.125426, "subtitle" : "Reaverhill, Barrasford, Northumberland, United Kingdom, England, United Kingdom, Europe", "title" : "Reaverhill", "type" : "FIND" }
{ "_id" : { "$oid" : "52c2ebdd8110650b62d8be61" }, "accuracy" : 4, "id" : 103, "latitude" : 54.77079, "longitude" : -1.703089, "subtitle" : "Esh Winning, County Durham, England, United Kingdom, Europe", "title" : "Esh Winning", "type" : "FIND" }
{ "_id" : { "$oid" : "52c2ebdd8110650b62d8be62" }, "accuracy" : 4, "id" : 104, "latitude" : 29.3084021, "longitude" : 30.8428497, "subtitle" : "Faiyum, Qesm Al Fayoum, Al Fayoum, Faiyum, Egypt, Africa", "title" : "Qasr-el-Sagha (Faiyum)", "type" : "FIND" }
{ "_id" : { "$oid" : "52c2ebdd8110650b62d8be63" }, "accuracy" : 3, "id" : 105, "latitude" : -19.4914108, "longitude" : 132.5509603, "subtitle" : "Northern Territory, Australia, Australasia", "title" : "Northern Territory", "type" : "FIND" }
{ "_id" : { "$oid" : "52c2ebdd8110650b62d8be64" }, "accuracy" : 4, "id" : 106, "latitude" : 55.049871, "longitude" : -1.739844, "subtitle" : "Ponteland, Northumberland, England, United Kingdom, Europe", "title" : "Ponteland", "type" : "FIND" }
{ "_id" : { "$oid" : "52c2ebdd8110650b62d8be65" }, "accuracy" : 4, "id" : 107, "latitude" : 55.6021, "longitude" : -1.7698, "subtitle" : "Budle Bay, Belford, Northumberland, England, United Kingdom, Europe", "title" : "Budle Bay", "type" : "FIND" }
{ "_id" : { "$oid" : "52c2ebdd8110650b62d8be66" }, "accuracy" : 1, "id" : 108, "latitude" : 76.2505778, "longitude" : -100.1139521, "subtitle" : "Arctic, North America", "title" : "Arctic", "type" : "FIND" }
{ "_id" : { "$oid" : "52c2ebdd8110650b62d8be67" }, "accuracy" : 4, "id" : 109, "latitude" : 4.15, "longitude" : 22.433333, "subtitle" : "Uele River, DR Congo, Africa", "title" : "Uele River", "type" : "FIND" }
{ "_id" : { "$oid" : "52c2ebdd8110650b62d8be68" }, "accuracy" : 4, "id" : 110, "latitude" : 55.299915, "longitude" : -1.70943, "subtitle" : "Felton, Northumberland, England, United Kingdom, Europe", "title" : "Felton", "type" : "FIND" }
{ "_id" : { "$oid" : "52c2ebdd8110650b62d8be69" }, "accuracy" : 2, "id" : 111, "latitude" : 41.87194, "longitude" : 12.56738, "subtitle" : "Italy, Europe", "title" : "Italy", "type" : "FIND" }
{ "_id" : { "$oid" : "52c2ebdd8110650b62d8be6a" }, "accuracy" : 4, "id" : 112, "latitude" : 52.616912, "longitude" : 1.143219, "subtitle" : "Great Melton, Norwich, Norfolk, England, United Kingdom, Europe", "title" : "Great Melton", "type" : "FIND" }
{ "_id" : { "$oid" : "52c2ebdd8110650b62d8be6b" }, "accuracy" : 4, "id" : 113, "latitude" : 54.971118, "longitude" : -1.775695, "subtitle" : "Barmoor, Ryton, Tyne and Wear, England, United Kingdom, Europe", "title" : "Barmoor", "type" : "FIND" }
{ "_id" : { "$oid" : "52c2ebdd8110650b62d8be6c" }, "accuracy" : 1, "id" : 114, "latitude" : -22.7554385, "longitude" : 133.7908453, "subtitle" : "Central Australia, Northern Territory, Australia, Australasia", "title" : "Central Australia", "type" : "FIND" }
{ "_id" : { "$oid" : "52c2ebdd8110650b62d8be6d" }, "accuracy" : 2, "id" : 115, "latitude" : 56.130366, "longitude" : -106.346771, "subtitle" : "Canada, North America", "title" : "Canada", "type" : "FIND" }
{ "_id" : { "$oid" : "52c2ebdd8110650b62d8be6e" }, "accuracy" : 3, "id" : 116, "latitude" : 38.8907822, "longitude" : -83.50702029999999, "subtitle" : "Adams County, Ohio, United States, North America", "title" : "Adams County", "type" : "FIND" }
{ "_id" : { "$oid" : "52c2ebdd8110650b62d8be6f" }, "accuracy" : 3, "id" : 117, "latitude" : 26.2006043, "longitude" : 92.9375739, "subtitle" : "Assam, India, Asia", "title" : "Assam", "type" : "FIND" }
{ "_id" : { "$oid" : "52c2ebdd8110650b62d8be70" }, "accuracy" : 4, "id" : 118, "latitude" : -27.4616, "longitude" : 29.8613, "subtitle" : "Volksrust, Kwazulu-Natal, South Africa, Africa", "title" : "Volksrust (Majuba Hill)", "type" : "FIND" }
{ "_id" : { "$oid" : "52c2ebdd8110650b62d8be71" }, "accuracy" : 4, "id" : 119, "latitude" : 51.403928, "longitude" : -0.412932, "subtitle" : "Sunbury, Surrey, England, United Kingdom, Europe", "title" : "River Thames (Sunbury)", "type" : "FIND" }
{ "_id" : { "$oid" : "52c2ebdd8110650b62d8be72" }, "accuracy" : 4, "id" : 120, "latitude" : 54.99616, "longitude" : -1.712317, "subtitle" : "Westerhope, Newcastle Upon Tyne, Tyne and Wear, England, United Kingdom, Europe", "title" : "Westerhope", "type" : "FIND" }
{ "_id" : { "$oid" : "52c2ebdd8110650b62d8be73" }, "accuracy" : 4, "id" : 121, "latitude" : 33.6686111, "longitude" : -84.43972220000001, "subtitle" : "Flint River, College Park, Georgia, United States, North America", "title" : "Flint River", "type" : "FIND" }
{ "_id" : { "$oid" : "52c2ebdd8110650b62d8be74" }, "accuracy" : 4, "id" : 122, "latitude" : 55.0136591, "longitude" : -2.1316658, "subtitle" : "Warden Hill, Wall, Northumberland, England, United Kingdom, Europe", "title" : "Warden Hill", "type" : "FIND" }
{ "_id" : { "$oid" : "52c2ebdd8110650b62d8be75" }, "accuracy" : 4, "id" : 123, "latitude" : 54.841016, "longitude" : -1.468691, "subtitle" : "Houghton-le-Spring, Tyne and Wear, England, United Kingdom, Europe", "title" : "Houghton-le-Spring", "type" : "FIND" }
{ "_id" : { "$oid" : "52c2ebdd8110650b62d8be76" }, "accuracy" : 3, "id" : 124, "latitude" : -21.9352313, "longitude" : -157.9165934, "subtitle" : "Mangaia, Cook Islands, Polynesia, South Pacific", "title" : "Mangaia", "type" : "FIND" }
{ "_id" : { "$oid" : "52c2ebdd8110650b62d8be77" }, "accuracy" : 3, "id" : 125, "latitude" : 55.2082542, "longitude" : -2.0784138, "subtitle" : "Northumberland, England, United Kingdom, Europe", "title" : "Northumberland", "type" : "FIND" }
{ "_id" : { "$oid" : "52c2ebdd8110650b62d8be78" }, "accuracy" : 4, "id" : 126, "latitude" : 55.6749592, "longitude" : -2.052031, "subtitle" : "Bowsden Moor, Berwick-upon-Tweed, Northumberland, England, United Kingdom, Europe", "title" : "Bowsden", "type" : "FIND" }
{ "_id" : { "$oid" : "52c2ebdd8110650b62d8be79" }, "accuracy" : 3, "id" : 127, "latitude" : -29.0466808, "longitude" : 21.8568586, "subtitle" : "Northern Cape, South Africa, Africa", "title" : "Cap du Nord", "type" : "FIND" }
{ "_id" : { "$oid" : "52c2ebdd8110650b62d8be7a" }, "accuracy" : 3, "id" : 128, "latitude" : 57.1621429, "longitude" : -2.7194167, "subtitle" : "Aberdeenshire, Scotland, United Kingdom, Europe", "title" : "Aberdeenshire", "type" : "FIND" }
{ "_id" : { "$oid" : "52c2ebdd8110650b62d8be7b" }, "accuracy" : 4, "id" : 129, "latitude" : 51.4469891, "longitude" : 0.3103497, "subtitle" : "Swanscombe, Kent, England, United Kingdom, Europe", "title" : "Swanscombe", "type" : "FIND" }
{ "_id" : { "$oid" : "52c2ebdd8110650b62d8be7c" }, "accuracy" : 1, "id" : 130, "latitude" : 54.5259614, "longitude" : 15.2551187, "subtitle" : "Europe", "title" : "Europe", "type" : "FIND" }
{ "_id" : { "$oid" : "52c2ebdd8110650b62d8be7d" }, "accuracy" : 3, "id" : 131, "latitude" : 54.2503595, "longitude" : -1.4708553, "subtitle" : "Yorkshire, England, United Kingdom", "title" : "Yorkshire", "type" : "FIND" }
{ "_id" : { "$oid" : "52c2ebdd8110650b62d8be7e" }, "accuracy" : 4, "id" : 132, "latitude" : 55.6085792, "longitude" : -1.7538975, "subtitle" : "Budle, Northumberland, England, United Kingdom, Europe", "title" : "Budle", "type" : "FIND" }
{ "_id" : { "$oid" : "52c2ebdd8110650b62d8be7f" }, "accuracy" : 4, "id" : 133, "latitude" : 26.1837366, "longitude" : 31.9227288, "subtitle" : "Abidus, Qesm Al Wahat Al Khargah, New Valley Governorate, Egypt, Africa", "title" : "Abidus", "type" : "FIND" }
{ "_id" : { "$oid" : "52c2ebdd8110650b62d8be80" }, "accuracy" : 4, "id" : 134, "latitude" : 55.38937, "longitude" : -1.79551, "subtitle" : "Corby Crags, Alnwick, Northumberland, England, United Kingdom, Europe", "title" : "Corby Crags", "type" : "FIND" }
{ "_id" : { "$oid" : "52c2ebdd8110650b62d8be81" }, "accuracy" : 4, "id" : 135, "latitude" : 13.193887, "longitude" : -59.543198, "subtitle" : "Barbados, Caribbean", "title" : "Barbados", "type" : "FIND" }
{ "_id" : { "$oid" : "52c2ebdd8110650b62d8be82" }, "accuracy" : 4, "id" : 136, "latitude" : 55.168499, "longitude" : -1.862917, "subtitle" : "Hartburn, Northumberland, England, United Kingdom, Europe", "title" : "Hartburn", "type" : "FIND" }
{ "_id" : { "$oid" : "52c2ebdd8110650b62d8be83" }, "accuracy" : 2, "id" : 137, "latitude" : -0.228021, "longitude" : 15.827659, "subtitle" : "Congo, Africa", "title" : "Congo", "type" : "FIND" }
{ "_id" : { "$oid" : "52c2ebdd8110650b62d8be84" }, "accuracy" : 4, "id" : 138, "latitude" : 39.6094934, "longitude" : -90.4879916, "subtitle" : "Scott County, Illinois, United States, North America", "title" : "Scott County", "type" : "FIND" }
{ "_id" : { "$oid" : "52c2ebdd8110650b62d8be85" }, "accuracy" : 4, "id" : 139, "latitude" : 26.9915774, "longitude" : 31.4155591, "subtitle" : "Al Badari, Markaz Al Badari, Assiut, Egypt", "title" : "Al Badari", "type" : "FIND" }
{ "_id" : { "$oid" : "52c2ebdd8110650b62d8be86" }, "accuracy" : 4, "id" : 140, "latitude" : 54.972629, "longitude" : -2.304122, "subtitle" : "Moralee Farm, Haydon Bridge, Northumberland, England, United Kingdom, Europe", "title" : "Moralee Farm", "type" : "FIND" }
{ "_id" : { "$oid" : "52c2ebdd8110650b62d8be87" }, "accuracy" : 4, "id" : 141, "latitude" : -28.353821, "longitude" : 138.650497, "subtitle" : "Mulka, South Australia, Australia, Australasia", "title" : "Mulka", "type" : "FIND" }
{ "_id" : { "$oid" : "52c2ebdd8110650b62d8be88" }, "accuracy" : 4, "id" : 142, "latitude" : 55.153538, "longitude" : -1.956069, "subtitle" : "Wallington, Northumberland, England, United Kingdom, Europe", "title" : "Wallington", "type" : "FIND" }
{ "_id" : { "$oid" : "52c2ebdd8110650b62d8be89" }, "accuracy" : 3, "id" : 143, "latitude" : 55.025562, "longitude" : -1.466289, "subtitle" : "North Tyneside, Tyne and Wear, England, United Kingdom, Europe", "title" : "North Tyneside", "type" : "FIND" }
{ "_id" : { "$oid" : "52c2ebdd8110650b62d8be8a" }, "accuracy" : 4, "id" : 144, "latitude" : 54.874535, "longitude" : -1.8109082, "subtitle" : "High Bradley Farm, Medomsley, Consett, County Durham, England, United Kingdom, Europe", "title" : "High Bradley Farm", "type" : "FIND" }
{ "_id" : { "$oid" : "52c2ebdd8110650b62d8be8b" }, "accuracy" : 4, "id" : 145, "latitude" : 55.700312, "longitude" : -1.906838, "subtitle" : "Goswick, Northumberland, England, United Kingdom, Europe", "title" : "Goswick", "type" : "FIND" }
{ "_id" : { "$oid" : "52c2ebdd8110650b62d8be8c" }, "accuracy" : 4, "id" : 146, "latitude" : 54.762441, "longitude" : -2.686089, "subtitle" : "Kirkoswald, Cumbria, England, United Kingdom, Europe", "title" : "Kirkoswald Castle", "type" : "FIND" }
{ "_id" : { "$oid" : "52c2ebdd8110650b62d8be8d" }, "accuracy" : 4, "id" : 147, "latitude" : 55.5157113, "longitude" : -1.9683324, "subtitle" : "Lilburn Hill Farm, Alnwick, Northumberland, England, United Kingdom, Europe", "title" : "Lilburn Hill Farm", "type" : "FIND" }
{ "_id" : { "$oid" : "52c2ebdd8110650b62d8be8e" }, "accuracy" : 4, "id" : 148, "latitude" : 55.0226175, "longitude" : -1.9256593, "subtitle" : "West Moorhouses Farm, Matfen, Northumberland, England, United Kingdom, Europe", "title" : "West Moorhouse Farm", "type" : "FIND" }
{ "_id" : { "$oid" : "52c2ebdd8110650b62d8be8f" }, "accuracy" : 3, "id" : 149, "latitude" : 54.975089, "longitude" : -2.3428619, "subtitle" : "Bardon Mill, Northumberland, England, United Kingdom, Europe", "title" : "Bardon Mill", "type" : "FIND" }
{ "_id" : { "$oid" : "52c2ebdd8110650b62d8be90" }, "accuracy" : 4, "id" : 150, "latitude" : 55.012361, "longitude" : -1.583661, "subtitle" : "Longbenton, Tyne and Wear, England, United Kingdom, Europe", "title" : "Longbenton", "type" : "FIND" }
{ "_id" : { "$oid" : "52c2ebdd8110650b62d8be91" }, "accuracy" : 2, "id" : 151, "latitude" : 42.315407, "longitude" : 43.356892, "subtitle" : "Georgia, Europe", "title" : "Georgia", "type" : "FIND" }
{ "_id" : { "$oid" : "52c2ebdd8110650b62d8be92" }, "accuracy" : 4, "id" : 152, "latitude" : 54.982027, "longitude" : -1.741748, "subtitle" : "Newburn, Tyne and Wear, England, United Kingdom, Europe", "title" : "River Tyne (Newburn)", "type" : "FIND" }
{ "_id" : { "$oid" : "52c2ebdd8110650b62d8be93" }, "accuracy" : 4, "id" : 153, "latitude" : 55.4711121, "longitude" : -1.5937043, "subtitle" : "The Heughs, Craster, Northumberland, Alnwick, Northumberland, England, United Kingdom, Europe", "title" : "The Heughs", "type" : "FIND" }
{ "_id" : { "$oid" : "52c2ebdd8110650b62d8be94" }, "accuracy" : 4, "id" : 154, "latitude" : 54.972665, "longitude" : -2.1121439, "subtitle" : "Hexham, Northumberland, England, United Kingdom, Europe", "title" : "Hexham", "type" : "FIND" }
{ "_id" : { "$oid" : "52c2ebdd8110650b62d8be95" }, "accuracy" : 2, "id" : 155, "latitude" : 34.802075, "longitude" : 38.996815, "subtitle" : "Syria, Africa", "title" : "Syria", "type" : "FIND" }
{ "_id" : { "$oid" : "52c2ebdd8110650b62d8be96" }, "accuracy" : 4, "id" : 156, "latitude" : 54.802615, "longitude" : -1.3687194, "subtitle" : "Batterlaw, Seaham, County Durham, England, United Kingdom, Europe", "title" : "Batterlaw", "type" : "FIND" }
{ "_id" : { "$oid" : "52c2ebdd8110650b62d8be97" }, "accuracy" : 1, "id" : 157, "latitude" : -8.783194999999999, "longitude" : -55.491477, "subtitle" : "South America", "title" : "South America", "type" : "FIND" }
{ "_id" : { "$oid" : "52c2ebdd8110650b62d8be98" }, "accuracy" : 4, "id" : 158, "latitude" : 54.887285, "longitude" : -1.4575229, "subtitle" : "Grindon, Sunderland, Tyne and Wear, England, United Kingdom, Europe", "title" : "Grindon", "type" : "FIND" }
{ "_id" : { "$oid" : "52c2ebdd8110650b62d8be99" }, "accuracy" : 4, "id" : 159, "latitude" : 54.664097, "longitude" : -2.752708, "subtitle" : "Penrith, Cumbria, England, United Kingdom, Europe", "title" : "Penrith Beacon", "type" : "FIND" }
{ "_id" : { "$oid" : "52c2ebdd8110650b62d8be9a" }, "accuracy" : 4, "id" : 160, "latitude" : 55.007335, "longitude" : -1.622836, "subtitle" : "Gosforth, Tyne and Wear, England, United Kingdom, Europe", "title" : "Gosforth", "type" : "FIND" }
{ "_id" : { "$oid" : "52c2ebdd8110650b62d8be9b" }, "accuracy" : 4, "id" : 161, "latitude" : 1.3046, "longitude" : 1.1297, "subtitle" : "Whatmer Hall, Sturry, Kent, England, United Kingdom, Europe", "title" : "Whatmer Hall", "type" : "FIND" }
{ "_id" : { "$oid" : "52c2ebdd8110650b62d8be9c" }, "accuracy" : 3, "id" : 162, "latitude" : 55.4632518, "longitude" : 11.7214979, "subtitle" : "Zealand, Denmark, Europe", "title" : "Zealand, Denmark", "type" : "FIND" }
{ "_id" : { "$oid" : "52c2ebdd8110650b62d8be9d" }, "accuracy" : 4, "id" : 163, "latitude" : 46.5561036, "longitude" : 5.0210327, "subtitle" : "St. Brienne, Brienne, France, Europe", "title" : "St. Brienne", "type" : "FIND" }
{ "_id" : { "$oid" : "52c2ebdd8110650b62d8be9e" }, "accuracy" : 1, "id" : 164, "latitude" : 54.5259614, "longitude" : -105.2551187, "subtitle" : "North America", "title" : "North America", "type" : "FIND" }
{ "_id" : { "$oid" : "52c2ebdd8110650b62d8be9f" }, "accuracy" : 4, "id" : 165, "latitude" : 54.962993, "longitude" : -1.71867, "subtitle" : "Blaydon, Tyne and Wear, England, United Kingdom, Europe", "title" : "River Tyne (Blaydon)", "type" : "FIND" }
{ "_id" : { "$oid" : "52c2ebdd8110650b62d8bea0" }, "accuracy" : 4, "id" : 166, "latitude" : 32.667476, "longitude" : 69.85974059999999, "subtitle" : "Waziristan, Pakistan, Asia", "title" : "Waziristan", "type" : "FIND" }
{ "_id" : { "$oid" : "52c2ebdd8110650b62d8bea1" }, "accuracy" : 4, "id" : 167, "latitude" : 54.900992, "longitude" : -1.577429, "subtitle" : "Birtley, Tyne and Wear, England, United Kingdom, Europe", "title" : "Birtley Church Yard", "type" : "FIND" }
{ "_id" : { "$oid" : "52c2ebdd8110650b62d8bea2" }, "accuracy" : 4, "id" : 168, "latitude" : -25.406494, "longitude" : -70.48030300000001, "subtitle" : "Taltal, Antofagasta Region, Chile, South America", "title" : "Taltal", "type" : "FIND" }
{ "_id" : { "$oid" : "52c2ebdd8110650b62d8bea3" }, "accuracy" : 2, "id" : 169, "latitude" : 46.818188, "longitude" : 8.227512000000001, "subtitle" : "Switzerland, Europe", "title" : "Switzerland", "type" : "FIND" }
{ "_id" : { "$oid" : "52c2ebdd8110650b62d8bea4" }, "accuracy" : 4, "id" : 170, "latitude" : 55.344279, "longitude" : -1.609709, "subtitle" : "Warkworth, Northumberland, England, United Kingdom, Europe", "title" : "Warkworth", "type" : "FIND" }
{ "_id" : { "$oid" : "52c2ebdd8110650b62d8bea5" }, "accuracy" : 4, "id" : 171, "latitude" : 55.579062, "longitude" : 1.995056, "subtitle" : "Harehaugh Hillfort, Dod Law, Northumberland, England, United Kingdom, Europe", "title" : "Harehaugh Hillfort", "type" : "FIND" }
{ "_id" : { "$oid" : "52c2ebdd8110650b62d8bea6" }, "accuracy" : 4, "id" : 172, "latitude" : 55.537015, "longitude" : -1.7627006, "subtitle" : "Newstead Farm, Chathill, Northumberland, England, United Kingdom, Europe", "title" : "Newsteads Farm", "type" : "FIND" }
{ "_id" : { "$oid" : "52c2ebdd8110650b62d8bea7" }, "accuracy" : 3, "id" : 173, "latitude" : 55.3290605, "longitude" : 10.2352908, "subtitle" : "Funen, Denmark, Europe", "title" : "Funen", "type" : "FIND" }
{ "_id" : { "$oid" : "52c2ebdd8110650b62d8bea8" }, "accuracy" : 4, "id" : 174, "latitude" : 55.14578, "longitude" : -2.254156, "subtitle" : "Shaw Farm, Bellingham, Northumberland, England, United Kingdom, Europe", "title" : "Shaw Farm", "type" : "FIND" }
{ "_id" : { "$oid" : "52c2ebdd8110650b62d8bea9" }, "accuracy" : 4, "id" : 175, "latitude" : 55.341527, "longitude" : -1.731697, "subtitle" : "Newton-on-the-Moor, Northumberland, England, United Kingdom, Europe", "title" : "Newton-on-the-Moor", "type" : "FIND" }
{ "_id" : { "$oid" : "52c2ebdd8110650b62d8beaa" }, "accuracy" : 4, "id" : 176, "latitude" : 55.2887051, "longitude" : -1.6505962, "subtitle" : "Chevington Wood, Morpeth, Northumberland, England, United Kingdom, Europe", "title" : "Chevington Wood", "type" : "FIND" }
{ "_id" : { "$oid" : "52c2ebdd8110650b62d8beab" }, "accuracy" : 4, "id" : 177, "latitude" : 55.0665718, "longitude" : -1.9451166, "subtitle" : "River Tyne, England, United Kingdom, Europe", "title" : "River Tyne", "type" : "FIND" }
{ "_id" : { "$oid" : "52c2ebdd8110650b62d8beac" }, "accuracy" : 4, "id" : 178, "latitude" : 55.0041964, "longitude" : -1.7292692, "subtitle" : "Fell House Farm, North Walbottle, Tyne and Wear, England, United Kingdom, Europe", "title" : "Fell House", "type" : "FIND" }
{ "_id" : { "$oid" : "52c2ebdd8110650b62d8bead" }, "accuracy" : 4, "id" : 179, "latitude" : 55.58585, "longitude" : -2.003057, "subtitle" : "Doddington, Northumberland, England, United Kingdom, Europe", "title" : "Doddington", "type" : "FIND" }
{ "_id" : { "$oid" : "52c2ebdd8110650b62d8beae" }, "accuracy" : 4, "id" : 180, "latitude" : 54.697555, "longitude" : -2.277148, "subtitle" : "Chapel Fell, Harwood, Barnard Castle, County Durham, England, United Kingdom, Europe", "title" : "Chapel Fell", "type" : "FIND" }
{ "_id" : { "$oid" : "52c2ebdd8110650b62d8beaf" }, "accuracy" : 4, "id" : 181, "latitude" : 55.16009, "longitude" : -1.70427, "subtitle" : "Kirkhill, West Hepple, Morpeth, Northumberland, England, United Kingdom, Europe", "title" : "Kirkhill", "type" : "FIND" }
{ "_id" : { "$oid" : "52c2ebdd8110650b62d8beb0" }, "accuracy" : 3, "id" : 182, "latitude" : -37.8965461, "longitude" : 175.6023643, "subtitle" : "North Island, New Zealand, Australasia", "title" : "North Island", "type" : "FIND" }
{ "_id" : { "$oid" : "52c2ebdd8110650b62d8beb1" }, "accuracy" : 4, "id" : 183, "latitude" : 55.231059, "longitude" : -2.176524, "subtitle" : "Otterburn, Northumberland, England, United Kingdom, Europe", "title" : "Otterburn", "type" : "FIND" }
{ "_id" : { "$oid" : "52c2ebdd8110650b62d8beb2" }, "accuracy" : 3, "id" : 184, "latitude" : -2.0941169, "longitude" : 146.8760951, "subtitle" : "Admiralty Islands, Papua New Guinea, Australasia", "title" : "Admiralty Islands", "type" : "FIND" }
{ "_id" : { "$oid" : "52c2ebdd8110650b62d8beb3" }, "accuracy" : 4, "id" : 185, "latitude" : 54.744591, "longitude" : -2.081184, "subtitle" : "Eastgate, County Durham, England, United Kingdom, Europe", "title" : "Eastgate, County Durham", "type" : "FIND" }
{ "_id" : { "$oid" : "52c2ebdd8110650b62d8beb4" }, "accuracy" : 3, "id" : 186, "latitude" : 54.124428, "longitude" : -0.522988, "subtitle" : "Yorkshire Wolds, Yorkshire, England, United Kingdom", "title" : "Yorkshire Wolds", "type" : "FIND" }
{ "_id" : { "$oid" : "52c2ebdd8110650b62d8beb5" }, "accuracy" : 2, "id" : 187, "latitude" : 32.1574351, "longitude" : -82.907123, "subtitle" : "Georgia, United States, North America", "title" : "Georgia", "type" : "FIND" }
{ "_id" : { "$oid" : "52c2ebdd8110650b62d8beb6" }, "accuracy" : 4, "id" : 188, "latitude" : -31.2532183, "longitude" : 146.921099, "subtitle" : "Muranmuran, New South Wales, Australia, Australasia", "title" : "Muranmuran", "type" : "FIND" }
{ "_id" : { "$oid" : "52c2ebdd8110650b62d8beb7" }, "accuracy" : 4, "id" : 189, "latitude" : 55.64903, "longitude" : -1.93645, "subtitle" : "Kyloe Crags, Berwick-upon-Tweed, Northumberland, England, United Kingdom, Europe", "title" : "Kyloe Crags", "type" : "FIND" }
{ "_id" : { "$oid" : "52c2ebdd8110650b62d8beb8" }, "accuracy" : 4, "id" : 190, "latitude" : 54.598326, "longitude" : -1.569145, "subtitle" : "Aycliffe, County Durham, England, United Kingdom, Europe", "title" : "Aycliffe", "type" : "FIND" }
{ "_id" : { "$oid" : "52c2ebdd8110650b62d8beb9" }, "accuracy" : 4, "id" : 191, "latitude" : 55.4990964, "longitude" : -2.0739222, "subtitle" : "Harthope Burn, Northumberland, England, United Kingdom, Europe", "title" : "Harthope Burn", "type" : "FIND" }
{ "_id" : { "$oid" : "52c2ebdd8110650b62d8beba" }, "accuracy" : 1, "id" : 192, "latitude" : 34.047863, "longitude" : 100.6196553, "subtitle" : "Asia", "title" : "Asia", "type" : "FIND" }
{ "_id" : { "$oid" : "52c2ebdd8110650b62d8bebb" }, "accuracy" : 4, "id" : 193, "latitude" : 55.156375, "longitude" : -2.006044, "subtitle" : "Kirkwhelpington, Northumberland, England, United Kingdom, Europe", "title" : "Kirkwhelpington", "type" : "FIND" }
{ "_id" : { "$oid" : "52c2ebdd8110650b62d8bebc" }, "accuracy" : 3, "id" : 194, "latitude" : 49.2166667, "longitude" : -2.1325, "subtitle" : "Jersey, Channel Islands, United Kingdom, Europe", "title" : "Jersey, Channel Islands", "type" : "FIND" }
{ "_id" : { "$oid" : "52c2ebdd8110650b62d8bebd" }, "accuracy" : 4, "id" : 195, "latitude" : 18.85, "longitude" : -97.09999999999999, "subtitle" : "Orizaba, Veracruz, Mexico, Central America", "title" : "Orizaba", "type" : "FIND" }
{ "_id" : { "$oid" : "52c2ebdd8110650b62d8bebe" }, "accuracy" : 4, "id" : 196, "latitude" : 42.859997, "longitude" : -90.17984730000001, "subtitle" : "Mineral Point, Wisconsin, United States, North America", "title" : "Mineral Point", "type" : "FIND" }
{ "_id" : { "$oid" : "52c2ebdd8110650b62d8bebf" }, "accuracy" : 4, "id" : 197, "latitude" : 55.126957, "longitude" : -1.510277, "subtitle" : "Blyth, Northumberland, England, United Kingdom, Europe", "title" : "Monkey's Island (Blyth)", "type" : "FIND" }
{ "_id" : { "$oid" : "52c2ebdd8110650b62d8bec0" }, "accuracy" : 4, "id" : 198, "latitude" : 49.894067, "longitude" : 2.295753, "subtitle" : "Amiens, France, Europe", "title" : "Amiens", "type" : "FIND" }
{ "_id" : { "$oid" : "52c2ebdd8110650b62d8bec1" }, "accuracy" : 4, "id" : 199, "latitude" : 54.976453, "longitude" : -1.765766, "subtitle" : "Ryton, Tyne and Wear, England, United Kingdom, Europe", "title" : "Bewes Hill (Ryton)", "type" : "FIND" }
{ "_id" : { "$oid" : "52c2ebdd8110650b62d8bec2" }, "accuracy" : 1, "id" : 200, "latitude" : 2.3184621, "longitude" : 19.5687103, "subtitle" : "Central Africa, Africa", "title" : "Central Africa", "type" : "FIND" }
{ "_id" : { "$oid" : "52c2ebdd8110650b62d8bec3" }, "accuracy" : 4, "id" : 201, "latitude" : 55.2247189, "longitude" : -2.3871406, "subtitle" : "Tarset, Northumberland, England, United Kingdom, Europe", "title" : "Tarset", "type" : "FIND" }
{ "_id" : { "$oid" : "52c2ebdd8110650b62d8bec4" }, "accuracy" : 2, "id" : 202, "latitude" : -40.900557, "longitude" : 174.885971, "subtitle" : "New Zealand, Australasia", "title" : "New Zealand", "type" : "FIND" }
{ "_id" : { "$oid" : "52c2ebdd8110650b62d8bec5" }, "accuracy" : 4, "id" : 203, "latitude" : 26.4225926, "longitude" : 12.6216211, "subtitle" : "Wadi Al Hayaa, Libya, Africa", "title" : "Wadi El Agial", "type" : "FIND" }
{ "_id" : { "$oid" : "52c2ebdd8110650b62d8bec6" }, "accuracy" : 4, "id" : 204, "latitude" : 54.999571, "longitude" : -2.214508, "subtitle" : "Allerwash, Northumberland, England, United Kingdom, Europe", "title" : "Allerwash", "type" : "FIND" }
{ "_id" : { "$oid" : "52c2ebdd8110650b62d8bec7" }, "accuracy" : 4, "id" : 205, "latitude" : 29.3084021, "longitude" : 30.8428497, "subtitle" : "Faiyum, Qesm Al Fayoum, Al Fayoum, Faiyum, Egypt, Africa", "title" : "Moreis Bay (Faiyum)", "type" : "FIND" }
{ "_id" : { "$oid" : "52c2ebdd8110650b62d8bec8" }, "accuracy" : 2, "id" : 206, "latitude" : 46.227638, "longitude" : 2.213749, "subtitle" : "France, Europe", "title" : "France", "type" : "FIND" }
{ "_id" : { "$oid" : "52c2ebdd8110650b62d8bec9" }, "accuracy" : 4, "id" : 207, "latitude" : 55.079731, "longitude" : -2.023119, "subtitle" : "West Hallington, Hallington, Northumberland, England, United Kingdom, Europe", "title" : "West Hallington", "type" : "FIND" }
{ "_id" : { "$oid" : "52c2ebdd8110650b62d8beca" }, "accuracy" : 4, "id" : 208, "latitude" : 55.1270109, "longitude" : -1.5910058, "subtitle" : "Millfield, Bedlington, Northumberland, England, United Kingdom, Europe", "title" : "Milfield", "type" : "FIND" }
{ "_id" : { "$oid" : "52c2ebdd8110650b62d8becb" }, "accuracy" : 4, "id" : 209, "latitude" : 53.9331126, "longitude" : -0.7715945, "subtitle" : "Pocklington, York, East Riding of Yorkshire, England, United Kingdom, Europe", "title" : "Pocklington", "type" : "FIND" }
{ "_id" : { "$oid" : "52c2ebdd8110650b62d8becc" }, "accuracy" : 4, "id" : 210, "latitude" : 55.150091, "longitude" : -2.29517, "subtitle" : "Hesleyside, Northumberland, England, United Kingdom, Europe", "title" : "Hesleyside", "type" : "FIND" }
{ "_id" : { "$oid" : "52c2ebdd8110650b62d8becd" }, "accuracy" : 4, "id" : 211, "latitude" : 52.4851946, "longitude" : 0.6723694, "subtitle" : "Grime's Graves, Lynford, Thetford, Norfolk, England, United Kingdom, Europe", "title" : "Grime's Graves", "type" : "FIND" }
{ "_id" : { "$oid" : "52c2ebdd8110650b62d8bece" }, "accuracy" : 3, "id" : 212, "latitude" : -20.9175738, "longitude" : 142.7027956, "subtitle" : "Queensland, Australia, Australasia", "title" : "Queensland", "type" : "FIND" }
{ "_id" : { "$oid" : "52c2ebdd8110650b62d8becf" }, "accuracy" : 4, "id" : 213, "latitude" : 55.5394421, "longitude" : -1.9702466, "subtitle" : "Fowberry Moor Farm, Wooler, Northumberland, England, United Kingdom, Europe", "title" : "Fowberry Moor Farm", "type" : "FIND" }
{ "_id" : { "$oid" : "52c2ebdd8110650b62d8bed0" }, "accuracy" : 2, "id" : 214, "latitude" : -11.202692, "longitude" : 17.873887, "subtitle" : "Angola, Africa", "title" : "Angola", "type" : "FIND" }
{ "_id" : { "$oid" : "52c2ebdd8110650b62d8bed1" }, "accuracy" : 2, "id" : 215, "latitude" : 1.373333, "longitude" : 32.290275, "subtitle" : "Uganda, Africa", "title" : "Uganda, East Africa", "type" : "FIND" }
{ "_id" : { "$oid" : "52c2ebdd8110650b62d8bed2" }, "accuracy" : 4, "id" : 216, "latitude" : -5.15, "longitude" : 19.766667, "subtitle" : "Bushongo, Democratic Republic of the Congo, Africa", "title" : "Bushongo", "type" : "FIND" }
{ "_id" : { "$oid" : "52c2ebdd8110650b62d8bed3" }, "accuracy" : 4, "id" : 217, "latitude" : 55.045871, "longitude" : -1.494876, "subtitle" : "Earsdon, Tyne and Wear, England, United Kingdom, Europe", "title" : "Earsdon", "type" : "FIND" }
{ "_id" : { "$oid" : "52c2ebdd8110650b62d8bed4" }, "accuracy" : 4, "id" : 218, "latitude" : 55.2943628, "longitude" : -1.7137089, "subtitle" : "Swarland Mill, Felton, Morpeth, Northumberland, England, United Kingdom, Europe", "title" : "Swarland Mill", "type" : "FIND" }
{ "_id" : { "$oid" : "52c2ebdd8110650b62d8bed5" }, "accuracy" : 4, "id" : 219, "latitude" : 3.0398871, "longitude" : 35.6207049, "subtitle" : "Turkana, Kenya, Africa", "title" : "Turkana, East Africa", "type" : "FIND" }
{ "_id" : { "$oid" : "52c2ebdd8110650b62d8bed6" }, "accuracy" : 4, "id" : 220, "latitude" : 55.051556, "longitude" : -1.627601, "subtitle" : "Wideopen, Tyne and Wear, England, United Kingdom, Europe", "title" : "Wideopen", "type" : "FIND" }
{ "_id" : { "$oid" : "52c2ebdd8110650b62d8bed7" }, "accuracy" : 2, "id" : 221, "latitude" : -0.228021, "longitude" : 15.827659, "subtitle" : "Congo, Africa", "title" : "Congo (Zaire)", "type" : "FIND" }
{ "_id" : { "$oid" : "52c2ebdd8110650b62d8bed8" }, "accuracy" : 4, "id" : 222, "latitude" : 55.40059, "longitude" : 1.78852, "subtitle" : "Broomwood Camp, Edlingham, Northumberland, England, United Kingdom, Europe", "title" : "Broomwood Camp", "type" : "FIND" }
{ "_id" : { "$oid" : "52c2ebdd8110650b62d8bed9" }, "accuracy" : 4, "id" : 223, "latitude" : 55.4480219, "longitude" : -1.9356217, "subtitle" : "Brandon, Northumberland, England, United Kingdom, Europe", "title" : "East Hill (Brandon)", "type" : "FIND" }
{ "_id" : { "$oid" : "52c2ebdd8110650b62d8beda" }, "accuracy" : 2, "id" : 224, "latitude" : 12.862807, "longitude" : 30.217636, "subtitle" : "Sudan, Africa", "title" : "Sudan", "type" : "FIND" }
{ "_id" : { "$oid" : "52c2ebdd8110650b62d8bedb" }, "accuracy" : 3, "id" : 225, "latitude" : -8.4095178, "longitude" : 115.188916, "subtitle" : "Bali, Indonesia, South East Asia", "title" : "Bali", "type" : "FIND" }
{ "_id" : { "$oid" : "52c2ebdd8110650b62d8bedc" }, "accuracy" : 4, "id" : 226, "latitude" : 55.0711452, "longitude" : -1.5276765, "subtitle" : "Seaton Delaval, England, United Kingdom, Europe", "title" : "Seaton Delaval", "type" : "FIND" }
{ "_id" : { "$oid" : "52c2ebdd8110650b62d8bedd" }, "accuracy" : 2, "id" : 227, "latitude" : -1.831239, "longitude" : -78.18340600000001, "subtitle" : "Ecuador, South America", "title" : "Ecuador", "type" : "FIND" }
{ "_id" : { "$oid" : "52c2ebdd8110650b62d8bede" }, "accuracy" : 4, "id" : 228, "latitude" : 57.6591819, "longitude" : -3.3192255, "subtitle" : "Spynie Palace, Elgin, Moray, Scotland, United Kingdom, Europe", "title" : "Spynie", "type" : "FIND" }
{ "_id" : { "$oid" : "52c2ebdd8110650b62d8bedf" }, "accuracy" : 4, "id" : 229, "latitude" : 50.190087, "longitude" : 2.165233, "subtitle" : "Saint-Acheul, France, Europe", "title" : "St. Acheul", "type" : "FIND" }
{ "_id" : { "$oid" : "52c2ebdd8110650b62d8bee0" }, "accuracy" : 4, "id" : 230, "latitude" : 52.4531319, "longitude" : 0.667968, "subtitle" : "Santon Downham, Suffolk, England, United Kingdom, Europe", "title" : "Santon Downham", "type" : "FIND" }
{ "_id" : { "$oid" : "52c2ebdd8110650b62d8bee1" }, "accuracy" : 4, "id" : 231, "latitude" : 53.8580305, "longitude" : -1.9351232, "subtitle" : "Branshaw, West Yorkshire, England, United Kingdom, Europe", "title" : "Branshaw", "type" : "FIND" }
{ "_id" : { "$oid" : "52c2ebdd8110650b62d8bee2" }, "accuracy" : 3, "id" : 232, "latitude" : 19.7514798, "longitude" : 75.7138884, "subtitle" : "Maharashtra, India, Asia", "title" : "Mahratta, India", "type" : "FIND" }
{ "_id" : { "$oid" : "52c2ebdd8110650b62d8bee3" }, "accuracy" : 4, "id" : 233, "latitude" : 54.976453, "longitude" : -1.765766, "subtitle" : "Emma Quarry, Ryton, Tyne and Wear, England, United Kingdom, Europe", "title" : "Emma Quarry", "type" : "FIND" }
{ "_id" : { "$oid" : "52c2ebdd8110650b62d8bee4" }, "accuracy" : 4, "id" : 234, "latitude" : 55.334536, "longitude" : -1.941646, "subtitle" : "Cartington, Northumberland, England, United Kingdom, Europe", "title" : "Cartington Pike", "type" : "FIND" }
{ "_id" : { "$oid" : "52c2ebdd8110650b62d8bee5" }, "accuracy" : 4, "id" : 235, "latitude" : 55.309754, "longitude" : -1.64182, "subtitle" : "Acklington, Northumberland, England, United Kingdom, Europe", "title" : "Acklington", "type" : "FIND" }
{ "_id" : { "$oid" : "52c2ebdd8110650b62d8bee6" }, "accuracy" : 2, "id" : 236, "latitude" : 12.879721, "longitude" : 121.774017, "subtitle" : "Philippines, South East Asia", "title" : "Phillipines", "type" : "FIND" }
{ "_id" : { "$oid" : "52c2ebdd8110650b62d8bee7" }, "accuracy" : 4, "id" : 237, "latitude" : 54.486335, "longitude" : -0.613347, "subtitle" : "Whitby, North Yorkshire, England, United Kingdom, Europe", "title" : "Whitby", "type" : "FIND" }
{ "_id" : { "$oid" : "52c2ebdd8110650b62d8bee8" }, "accuracy" : 3, "id" : 238, "latitude" : 53.3824769, "longitude" : -6.3133674, "subtitle" : "County Dublin, Ireland, Europe", "title" : "County Dublin", "type" : "FIND" }
{ "_id" : { "$oid" : "52c2ebdd8110650b62d8bee9" }, "accuracy" : 4, "id" : 239, "latitude" : 55.3762427, "longitude" : 13.1574231, "subtitle" : "Trelleborg, Sweden, Europe", "title" : "Trelleborg, Denmark", "type" : "FIND" }
{ "_id" : { "$oid" : "52c2ebdd8110650b62d8beea" }, "accuracy" : 4, "id" : 240, "latitude" : 55.038528, "longitude" : -1.953183, "subtitle" : "Matfen, Northumberland, England, United Kingdom, Europe", "title" : "Matfen", "type" : "FIND" }
{ "_id" : { "$oid" : "52c2ebdd8110650b62d8beeb" }, "accuracy" : 4, "id" : 241, "latitude" : 55.08473, "longitude" : -2.245873, "subtitle" : "Ramshaw Mill, Wark, Hexham, Northumberland, England, United Kingdom, Europe", "title" : "Ramshaw Mill", "type" : "FIND" }
{ "_id" : { "$oid" : "52c2ebdd8110650b62d8beec" }, "accuracy" : 4, "id" : 242, "latitude" : 55.004003, "longitude" : -1.4321051, "subtitle" : "Arbeia Roman Fort, South Shields, Tyne and Wear, England, United Kingdom, Europe", "title" : "Arbeia Roman Fort", "type" : "FIND" }
{ "_id" : { "$oid" : "52c2ebdd8110650b62d8beed" }, "accuracy" : 3, "id" : 243, "latitude" : 40.4172871, "longitude" : -82.907123, "subtitle" : "Ohio, United States, North America", "title" : "Ohio", "type" : "FIND" }
{ "_id" : { "$oid" : "52c2ebdd8110650b62d8beee" }, "accuracy" : 4, "id" : 244, "latitude" : -38.1018952, "longitude" : 144.0511777, "subtitle" : "Inverleigh, Victoria, Australia, Australasia", "title" : "Inverleigh", "type" : "FIND" }
{ "_id" : { "$oid" : "52c2ebdd8110650b62d8beef" }, "accuracy" : 3, "id" : 245, "latitude" : 56.4906712, "longitude" : -4.2026458, "subtitle" : "Scotland, United Kingdom, Europe", "title" : "Scotland", "type" : "FIND" }
{ "_id" : { "$oid" : "52c2ebdd8110650b62d8bef0" }, "accuracy" : 4, "id" : 246, "latitude" : 54.4678769, "longitude" : -1.6950524, "subtitle" : "Scots Dyke, Melsonby, Richmond, North Yorkshire, England, United Kingdom, Europe", "title" : "Scot's Dyke", "type" : "FIND" }
{ "_id" : { "$oid" : "52c2ebdd8110650b62d8bef1" }, "accuracy" : 4, "id" : 247, "latitude" : 55.301905, "longitude" : -1.792616, "subtitle" : "Longframlington, Northumberland, England, United Kingdom, Europe", "title" : "Longframlington", "type" : "FIND" }
{ "_id" : { "$oid" : "52c2ebdd8110650b62d8bef2" }, "accuracy" : 3, "id" : 248, "latitude" : -54.3083548, "longitude" : -67.74515649999999, "subtitle" : "Tierra del Fuego Province, Argentina", "title" : "Tierra del Fuego, Argentina", "type" : "FIND" }
{ "_id" : { "$oid" : "52c2ebdd8110650b62d8bef3" }, "accuracy" : 3, "id" : 249, "latitude" : 21.975, "longitude" : 96.08333330000001, "subtitle" : "Mandalay, Burma, South East Asia", "title" : "Mandalay", "type" : "FIND" }
{ "_id" : { "$oid" : "52c2ebdd8110650b62d8bef4" }, "accuracy" : 4, "id" : 250, "latitude" : 55.3781941, "longitude" : -1.8259137, "subtitle" : "Edlingham, Northumberland, England, United Kingdom, Europe", "title" : "Edlingham", "type" : "FIND" }
{ "_id" : { "$oid" : "52c2ebdd8110650b62d8bef5" }, "accuracy" : 3, "id" : 251, "latitude" : 21.975, "longitude" : 96.08333330000001, "subtitle" : "Mandalay, Burma, Asia", "title" : "Mandalay", "type" : "FIND" }
{ "_id" : { "$oid" : "52c2ebdd8110650b62d8bef6" }, "accuracy" : 4, "id" : 252, "latitude" : 43.4261809, "longitude" : -73.71234080000001, "subtitle" : "Lake George, New York State, United States, North America", "title" : "Lake George", "type" : "FIND" }
{ "_id" : { "$oid" : "52c2ebdd8110650b62d8bef7" }, "accuracy" : 4, "id" : 253, "latitude" : 52.130701, "longitude" : -0.032537, "subtitle" : "Wimpole, Cambridgeshire, England, United Kingdom, Europe", "title" : "Wimpole", "type" : "FIND" }
{ "_id" : { "$oid" : "52c2ebdd8110650b62d8bef8" }, "accuracy" : 4, "id" : 254, "latitude" : 52.413917, "longitude" : 0.521854, "subtitle" : "Lakenheath, England, United Kingdom, Europe", "title" : "Lakenheath", "type" : "FIND" }
{ "_id" : { "$oid" : "52c2ebdd8110650b62d8bef9" }, "accuracy" : 4, "id" : 255, "latitude" : 54.953628, "longitude" : -1.883135, "subtitle" : "Mickley, Stocksfield, Northumberland, England, United Kingdom, Europe", "title" : "Mickley", "type" : "FIND" }
{ "_id" : { "$oid" : "52c2ebdd8110650b62d8befa" }, "accuracy" : 2, "id" : 256, "latitude" : 23.634501, "longitude" : -102.552784, "subtitle" : "Mexico, Central America", "title" : "Mexico", "type" : "FIND" }
{ "_id" : { "$oid" : "52c2ebdd8110650b62d8befb" }, "accuracy" : 4, "id" : 257, "latitude" : 55.008925, "longitude" : 11.909363, "subtitle" : "Vordingborg, Denmark, Europe", "title" : "Vordingberg", "type" : "FIND" }
{ "_id" : { "$oid" : "52c2ebdd8110650b62d8befc" }, "accuracy" : 4, "id" : 258, "latitude" : 26.2389469, "longitude" : 73.02430940000001, "subtitle" : "Rajput, Jodhpur, Rajasthan, India, Asia", "title" : "Rajput", "type" : "FIND" }
{ "_id" : { "$oid" : "52c2ebdd8110650b62d8befd" }, "accuracy" : 4, "id" : 259, "latitude" : 54.508348, "longitude" : -1.727071, "subtitle" : "Forcett, North Yorkshire, England, United Kingdom, Europe", "title" : "Forcett", "type" : "FIND" }
{ "_id" : { "$oid" : "52c2ebdd8110650b62d8befe" }, "accuracy" : 4, "id" : 260, "latitude" : 50.105467, "longitude" : 1.836833, "subtitle" : "Abbeville, France", "title" : "Abbeville", "type" : "FIND" }
{ "_id" : { "$oid" : "52c2ebdd8110650b62d8beff" }, "accuracy" : 4, "id" : 261, "latitude" : 54.9386996, "longitude" : -1.4575789, "subtitle" : "East Boldon, Tyne and Wear, England, United Kingdom, Europe", "title" : "East Boldon", "type" : "FIND" }
{ "_id" : { "$oid" : "52c2ebdd8110650b62d8bf00" }, "accuracy" : 4, "id" : 262, "latitude" : -22.453712, "longitude" : -68.925307, "subtitle" : "Calama, Antofagasta Region, Chile, South America", "title" : "Calama", "type" : "FIND" }
{ "_id" : { "$oid" : "52c2ebdd8110650b62d8bf01" }, "accuracy" : 3, "id" : 263, "latitude" : 1.8668577, "longitude" : -157.3599202, "subtitle" : "Kiribati, Micronesia, South Pacific", "title" : "Kiribati", "type" : "FIND" }
{ "_id" : { "$oid" : "52c2ebdd8110650b62d8bf02" }, "accuracy" : 4, "id" : 264, "latitude" : 54.959245, "longitude" : -1.868963, "subtitle" : "Eltringham, Prudhoe, Northumberland, England, United Kingdom, Europe", "title" : "Eltringham", "type" : "FIND" }
{ "_id" : { "$oid" : "52c2ebdd8110650b62d8bf03" }, "accuracy" : 2, "id" : 265, "latitude" : -6.314993, "longitude" : 143.95555, "subtitle" : "Papua New Guinea, Melanesia, Australasia", "title" : "Papua New Guinea", "type" : "FIND" }
{ "_id" : { "$oid" : "52c2ebdd8110650b62d8bf04" }, "accuracy" : 4, "id" : 266, "latitude" : 54.909416, "longitude" : -1.817007, "subtitle" : "Blackhall Mill, Tyne and Wear, England, United Kingdom, Europe", "title" : "Blackhall Mill", "type" : "FIND" }
{ "_id" : { "$oid" : "52c2ebdd8110650b62d8bf05" }, "accuracy" : 4, "id" : 267, "latitude" : -6.266667, "longitude" : 142.866667, "subtitle" : "Duna, Papua New Guinea, Melanesia, Australasia", "title" : "Duna Region", "type" : "FIND" }
{ "_id" : { "$oid" : "52c2ebdd8110650b62d8bf06" }, "accuracy" : 4, "id" : 268, "latitude" : 54.906869, "longitude" : -1.383801, "subtitle" : "Sunderland, Tyne and Wear, England, United Kingdom, Europe", "title" : "Sunderland", "type" : "FIND" }
{ "_id" : { "$oid" : "52c2ebdd8110650b62d8bf07" }, "accuracy" : 4, "id" : 269, "latitude" : 53.3494426, "longitude" : -6.2600825, "subtitle" : "Dublin, Ireland, Europe", "title" : "Dublin", "type" : "FIND" }
{ "_id" : { "$oid" : "52c2ebdd8110650b62d8bf08" }, "accuracy" : 4, "id" : 270, "latitude" : 55.177971, "longitude" : -2.169693, "subtitle" : "West Woodburn, Northumberland, England, United Kingdom, Europe", "title" : "West Woodburn", "type" : "FIND" }
{ "_id" : { "$oid" : "52c2ebdd8110650b62d8bf09" }, "accuracy" : 4, "id" : 271, "latitude" : 55.044016, "longitude" : -2.107625, "subtitle" : "Chollerton, Northumberland, England, United Kingdom, Europe", "title" : "River Tyne (Chollerton)", "type" : "FIND" }
{ "_id" : { "$oid" : "52c2ebdd8110650b62d8bf0a" }, "accuracy" : 4, "id" : 272, "latitude" : 55.4911437, "longitude" : -2.0822364, "subtitle" : "Langleeford, Northumberland, England, United Kingdom, Europe", "title" : "Langleeford", "type" : "FIND" }
{ "_id" : { "$oid" : "52c2ebdd8110650b62d8bf0b" }, "accuracy" : 4, "id" : 273, "latitude" : 54.944116, "longitude" : -1.674552, "subtitle" : "Whickham, Tyne and Wear, England, United Kingdom, Europe", "title" : "Whickham", "type" : "FIND" }
{ "_id" : { "$oid" : "52c2ebdd8110650b62d8bf0c" }, "accuracy" : 4, "id" : 274, "latitude" : 69.2166667, "longitude" : -51.1, "subtitle" : "Ilulissat, Greenland, Europe", "title" : "Ilulissat (Jacobshaven)", "type" : "FIND" }
{ "_id" : { "$oid" : "52c2ebdd8110650b62d8bf0d" }, "accuracy" : 4, "id" : 275, "latitude" : 6.9568313, "longitude" : 124.2421597, "subtitle" : "Moro, Mindarao, Phillipines, South East Asia", "title" : "Moro", "type" : "FIND" }
{ "_id" : { "$oid" : "52c2ebdd8110650b62d8bf0e" }, "accuracy" : 4, "id" : 276, "latitude" : 55.233085, "longitude" : -2.591971, "subtitle" : "Kielder, Northumberland, England, United Kingdom, Europe", "title" : "Kielder", "type" : "FIND" }
{ "_id" : { "$oid" : "52c2ebdd8110650b62d8bf0f" }, "accuracy" : 4, "id" : 277, "latitude" : 47.7661746, "longitude" : 9.170277199999999, "subtitle" : "Überlingen, Germany, Europe", "title" : "Uberlingen, Switzerland", "type" : "FIND" }
{ "_id" : { "$oid" : "52c2ebdd8110650b62d8bf10" }, "accuracy" : 2, "id" : 278, "latitude" : 5.152149, "longitude" : 46.199616, "subtitle" : "Somalia, Africa", "title" : "Somalia", "type" : "FIND" }
{ "_id" : { "$oid" : "52c2ebdd8110650b62d8bf11" }, "accuracy" : 2, "id" : 279, "latitude" : 35.86166, "longitude" : 104.195397, "subtitle" : "China, Asia", "title" : "China", "type" : "FIND" }
{ "_id" : { "$oid" : "52c2ebdd8110650b62d8bf12" }, "accuracy" : 4, "id" : 280, "latitude" : 54.978197, "longitude" : -1.389584, "subtitle" : "Marsden, South Shields, Tyne and Wear, England, United Kingdom, Europe", "title" : "Marsden", "type" : "FIND" }
{ "_id" : { "$oid" : "52c2ebdd8110650b62d8bf13" }, "accuracy" : 4, "id" : 281, "latitude" : -1.423535, "longitude" : 11.537447, "subtitle" : "Ogowe River, Gabon, Africa", "title" : "Ogooué River", "type" : "FIND" }
{ "_id" : { "$oid" : "52c2ebdd8110650b62d8bf14" }, "accuracy" : 4, "id" : 282, "latitude" : 51.0683303, "longitude" : -1.7880295, "subtitle" : "Milford Hill, Salisbury, Wiltshire, England, United Kingdom, Europe", "title" : "Millford Hill", "type" : "FIND" }
{ "_id" : { "$oid" : "52c2ebdd8110650b62d8bf15" }, "accuracy" : 4, "id" : 283, "latitude" : -0.023559, "longitude" : 37.906193, "subtitle" : "Kenya, Africa", "title" : "Kenya", "type" : "FIND" }
{ "_id" : { "$oid" : "52c2ebdd8110650b62d8bf16" }, "accuracy" : 4, "id" : 284, "latitude" : 54.91904, "longitude" : -1.91647, "subtitle" : "Apperley Dene, Stocksfield, Northumberland, England, United Kingdom, Europe", "title" : "Apperley Dene", "type" : "FIND" }
{ "_id" : { "$oid" : "52c2ebdd8110650b62d8bf17" }, "accuracy" : 4, "id" : 285, "latitude" : 55.237, "longitude" : -2.1947, "subtitle" : "Percy's Cross, Otterburn, Northumberland, England, United Kingdom, Europe", "title" : "Percy's Cross", "type" : "FIND" }
{ "_id" : { "$oid" : "52c2ebdd8110650b62d8bf18" }, "accuracy" : 3, "id" : 286, "latitude" : 39.2795607, "longitude" : -3.097702, "subtitle" : "La Mancha, Spain, Europe", "title" : "La Mancha", "type" : "FIND" }
{ "_id" : { "$oid" : "52c2ebdd8110650b62d8bf19" }, "accuracy" : 4, "id" : 287, "latitude" : 55.322915, "longitude" : -1.995333, "subtitle" : "Warton, Northumberland, England, United Kingdom, Europe", "title" : "Warton", "type" : "FIND" }
{ "_id" : { "$oid" : "52c2ebdd8110650b62d8bf1a" }, "accuracy" : 3, "id" : 288, "latitude" : -54.3083548, "longitude" : -67.74515649999999, "subtitle" : "Tierra del Fuego Province, Argentina", "title" : "Tierra del Fuego, Patagonia", "type" : "FIND" }
{ "_id" : { "$oid" : "52c2ebdd8110650b62d8bf1b" }, "accuracy" : 4, "id" : 289, "latitude" : 54.5157446, "longitude" : -1.5350491, "subtitle" : "Romaldkirk, Darlington, Yorkshire, England, United Kingdom, Europe", "title" : "Rowaldkirk", "type" : "FIND" }
{ "_id" : { "$oid" : "52c2ebdd8110650b62d8bf1c" }, "accuracy" : 4, "id" : 290, "latitude" : 2.5574285, "longitude" : 113.0011989, "subtitle" : "Sarawak, Malaysia, South East Asia", "title" : "Sarawak", "type" : "FIND" }
{ "_id" : { "$oid" : "52c2ebdd8110650b62d8bf1d" }, "accuracy" : 4, "id" : 291, "latitude" : 55.011057, "longitude" : -2.007788, "subtitle" : "Halton Chesters, Northumberland, England, United Kingdom, Europe", "title" : "Halton Chesters", "type" : "FIND" }
{ "_id" : { "$oid" : "52c2ebdd8110650b62d8bf1e" }, "accuracy" : 2, "id" : 292, "latitude" : -19.015438, "longitude" : 29.154857, "subtitle" : "Zimbabwe, Africa", "title" : "Zimbabwe", "type" : "FIND" }
{ "_id" : { "$oid" : "52c2ebdd8110650b62d8bf1f" }, "accuracy" : 4, "id" : 293, "latitude" : 55.638678, "longitude" : -2.320551, "subtitle" : "Carham, Northumberland, England, United Kingdom, Europe", "title" : "Carham", "type" : "FIND" }
{ "_id" : { "$oid" : "52c2ebdd8110650b62d8bf20" }, "accuracy" : 2, "id" : 294, "latitude" : 20.593684, "longitude" : 78.96288, "subtitle" : "India, Asia", "title" : "India", "type" : "FIND" }
{ "_id" : { "$oid" : "52c2ebdd8110650b62d8bf21" }, "accuracy" : 3, "id" : 295, "latitude" : 10, "longitude" : 9.5, "subtitle" : "Jos Plateau, Nigeria, Africa", "title" : "Jos Plateau", "type" : "FIND" }
{ "_id" : { "$oid" : "52c2ebdd8110650b62d8bf22" }, "accuracy" : 3, "id" : 296, "latitude" : 27.6648274, "longitude" : -81.5157535, "subtitle" : "Florida, United States, North America", "title" : "Florida", "type" : "FIND" }
{ "_id" : { "$oid" : "52c2ebdd8110650b62d8bf23" }, "accuracy" : 4, "id" : 297, "latitude" : 54.9666441, "longitude" : -1.7476928, "subtitle" : "Stargate, Blaydon, Tyne & Wear, England, United Kingdom, Europe", "title" : "Stargate", "type" : "FIND" }
{ "_id" : { "$oid" : "52c2ebdd8110650b62d8bf24" }, "accuracy" : 4, "id" : 298, "latitude" : 55.070013, "longitude" : -2.14319, "subtitle" : "Gunnerton, Barrasford, Northumberland, England, United Kingdom, Europe", "title" : "Gunnerton", "type" : "FIND" }
{ "_id" : { "$oid" : "52c2ebdd8110650b62d8bf25" }, "accuracy" : 4, "id" : 299, "latitude" : 55, "longitude" : -1.65, "subtitle" : "Nuns Moor, Newcastle Upon Tyne, Tyne and Wear, England, United Kingdom, Europe", "title" : "Nun's Moor", "type" : "FIND" }
{ "_id" : { "$oid" : "52c2ebdd8110650b62d8bf26" }, "accuracy" : 4, "id" : 300, "latitude" : 47.3305188, "longitude" : 8.783808199999999, "subtitle" : "Robenhausen, Wetzikon, Switzerland, Europe", "title" : "Robenhausen", "type" : "FIND" }
{ "_id" : { "$oid" : "52c2ebdd8110650b62d8bf27" }, "accuracy" : 2, "id" : 301, "latitude" : -30.559482, "longitude" : 22.937506, "subtitle" : "South Africa, Africa", "title" : "South Africa", "type" : "FIND" }
{ "_id" : { "$oid" : "52c2ebdd8110650b62d8bf28" }, "accuracy" : 4, "id" : 302, "latitude" : 54.95854, "longitude" : -1.686244, "subtitle" : "Swalwell, Tyne and Wear, England, United Kingdom, Europe", "title" : "Swalwell", "type" : "FIND" }
{ "_id" : { "$oid" : "52c2ebdd8110650b62d8bf29" }, "accuracy" : 4, "id" : 303, "latitude" : 55.770242, "longitude" : -2.005395, "subtitle" : "Berwick-upon-Tweed, Northumberland, England, United Kingdom, Europe", "title" : "Berwick", "type" : "FIND" }
{ "_id" : { "$oid" : "52c2ebdd8110650b62d8bf2a" }, "accuracy" : 3, "id" : 304, "latitude" : -9.522145099999999, "longitude" : 150.6749653, "subtitle" : "Massim Archipelago, Milne Bay Province, Papua New Guinea, Melanesia, Australasia", "title" : "Massim Archipelago", "type" : "FIND" }
{ "_id" : { "$oid" : "52c2ebdd8110650b62d8bf2b" }, "accuracy" : 4, "id" : 305, "latitude" : 52.1872472, "longitude" : 0.9707801, "subtitle" : "Suffolk, England, United Kingdom, Europe", "title" : "Suffolk", "type" : "FIND" }
{ "_id" : { "$oid" : "52c2ebdd8110650b62d8bf2c" }, "accuracy" : 4, "id" : 306, "latitude" : 54.99541, "longitude" : -1.757521, "subtitle" : "Throckley Fell, Throckley, Newcastle Upon Tyne, Tyne and Wear, England, United Kingdom, Europe", "title" : "Throckley Fell", "type" : "FIND" }
{ "_id" : { "$oid" : "52c2ebdd8110650b62d8bf2d" }, "accuracy" : 4, "id" : 307, "latitude" : 55.402096, "longitude" : -1.891348, "subtitle" : "Whittingham, Northumberland, England, United Kingdom, Europe", "title" : "Whittingham", "type" : "FIND" }
{ "_id" : { "$oid" : "52c2ebdd8110650b62d8bf2e" }, "accuracy" : 4, "id" : 308, "latitude" : 55.233085, "longitude" : -2.591971, "subtitle" : "Kielder Burn, Northumberland, England, United Kingdom, Europe", "title" : "Kielder Burn", "type" : "FIND" }
{ "_id" : { "$oid" : "52c2ebdd8110650b62d8bf2f" }, "accuracy" : 4, "id" : 309, "latitude" : 55.547141, "longitude" : -1.91501, "subtitle" : "Stelle Knowe, Chatton, Northumberland, England, United Kingdom, Europe", "title" : "Stelle Knowe", "type" : "FIND" }
{ "_id" : { "$oid" : "52c2ebdd8110650b62d8bf30" }, "accuracy" : 3, "id" : 310, "latitude" : 9.8894202, "longitude" : 32.7181375, "subtitle" : "Upper Nile, South Sudan, Africa", "title" : "Upper Nile", "type" : "FIND" }
{ "_id" : { "$oid" : "52c2ebdd8110650b62d8bf31" }, "accuracy" : 2, "id" : 311, "latitude" : 40.463667, "longitude" : -3.74922, "subtitle" : "Spain, Europe", "title" : "Spain", "type" : "FIND" }
{ "_id" : { "$oid" : "52c2ebdd8110650b62d8bf32" }, "accuracy" : 4, "id" : 312, "latitude" : 54.885335, "longitude" : -1.811501, "subtitle" : "Medomsley, County Durham, England, United Kingdom, Europe", "title" : "Medomsley", "type" : "FIND" }
{ "_id" : { "$oid" : "52c2ebdd8110650b62d8bf33" }, "accuracy" : 4, "id" : 313, "latitude" : 43.100903, "longitude" : -75.232664, "subtitle" : "Utica, New York, United States, North America", "title" : "Utica", "type" : "FIND" }
{ "_id" : { "$oid" : "52c2ebdd8110650b62d8bf34" }, "accuracy" : 4, "id" : 314, "latitude" : 55.5183826, "longitude" : -1.9493891, "subtitle" : "Lilburn Grange, West Lilburn, Alnwick, Northumberland, England, United Kingdom, Europe", "title" : "Lilburn Grange", "type" : "FIND" }
